City_ID,City,Lat,Lng,Max Temp,Humidity,Cloudiness,Wind Speed,Country,Date
0,tommot,58.9564,126.2925,248.5,85,100,2.62,RU,1675832477
1,kavieng,-2.5744,150.7967,301.13,76,100,4.0,PG,1675832381
2,billings,45.7833,-108.5007,278.02,53,0,5.36,US,1675832374
3,vianopolis,-16.7419,-48.5164,291.31,91,88,1.17,BR,1675832480
4,dikson,73.5069,80.5464,253.03,89,100,9.94,RU,1675832480
5,bengkulu,-3.8004,102.2655,302.75,56,79,4.48,ID,1675832233
6,piacabucu,-10.4056,-36.4344,297.88,75,100,3.22,BR,1675832483
7,kaitangata,-46.2817,169.8464,287.54,52,22,6.54,NZ,1675832484
8,lagoa,39.05,-27.9833,285.93,61,89,5.93,PT,1675832357
9,batemans bay,-35.7167,150.1833,294.87,80,100,0.63,AU,1675832486
10,vestmannaeyjar,63.4427,-20.2734,273.22,59,100,16.51,IS,1675832486
11,mongo,12.1844,18.693,293.63,21,33,2.61,TD,1675832488
12,aktau,43.65,51.2,274.47,79,99,7.17,KZ,1675832489
13,port alfred,-33.5906,26.891,293.81,86,100,1.79,ZA,1675832489
14,lodja,-3.4833,23.4333,294.7,88,100,0.16,CD,1675832490
15,mackay,-21.15,149.2,300.75,83,90,10.79,AU,1675832427
16,ponta do sol,32.6667,-17.1,288.55,70,33,3.3,PT,1675832491
17,tuy hoa,13.0833,109.3,299.82,76,38,3.28,VN,1675832492
18,port elizabeth,-33.918,25.5701,293.32,93,40,3.6,ZA,1675832493
19,banyo,6.75,11.8167,291.58,22,36,1.33,CM,1675832495
20,nhulunbuy,-12.2333,136.7667,303.49,74,75,4.12,AU,1675832497
21,ushuaia,-54.8,-68.3,283.96,71,40,1.54,AR,1675832351
22,butaritari,3.0707,172.7902,300.58,81,100,9.55,KI,1675832498
23,busselton,-33.65,115.3333,301.22,44,0,3.84,AU,1675832499
24,lukaya,-0.1489,31.8748,293.45,74,57,1.09,UG,1675832499
25,rikitea,-23.1203,-134.9692,299.63,71,61,4.02,PF,1675832500
26,katsuura,35.1333,140.3,283.02,70,98,8.0,JP,1675832502
27,chokurdakh,70.6333,147.9167,236.35,99,100,1.82,RU,1675832268
28,scarborough,54.2797,-0.4044,278.89,89,42,0.45,GB,1675832424
29,thompson,55.7435,-97.8558,256.24,85,75,1.03,CA,1675832505
30,ancud,-41.8697,-73.8203,285.98,94,1,1.64,CL,1675832505
31,vaini,-21.2,-175.2,298.24,100,75,2.57,TO,1675832506
32,hobart,-42.8794,147.3294,291.63,64,40,6.69,AU,1675832506
33,narsaq,60.9167,-46.05,254.27,66,22,4.22,GL,1675832507
34,mahibadhoo,3.7833,72.9667,300.25,66,37,2.46,MV,1675832508
35,mbala,-8.8402,31.3659,288.45,94,100,0.57,ZM,1675832484
36,acucena,-19.0731,-42.5464,292.44,96,100,0.89,BR,1675832509
37,bluff,-46.6,168.3333,283.04,67,57,12.14,NZ,1675832509
38,tallahassee,30.4383,-84.2807,288.57,83,20,0.0,US,1675832260
39,lebu,-37.6167,-73.65,287.77,89,0,7.37,CL,1675832510
40,kapaa,22.0752,-159.319,297.09,84,17,1.79,US,1675832511
41,pevek,69.7008,170.3133,242.78,98,100,1.71,RU,1675832511
42,ilulissat,69.2167,-51.1,241.22,99,98,2.06,GL,1675832355
43,leningradskiy,69.3833,178.4167,241.0,95,100,2.22,RU,1675832242
44,touros,-5.1989,-35.4608,298.18,74,100,5.6,BR,1675832217
45,masuguru,-11.3667,38.4167,296.59,96,96,1.54,TZ,1675832512
46,mnogovershinnyy,53.9353,139.9242,247.6,81,82,0.97,RU,1675832512
47,hermanus,-34.4187,19.2345,293.04,82,0,5.87,ZA,1675832512
48,talnakh,69.4865,88.3972,250.25,97,97,3.22,RU,1675832513
49,punta arenas,-53.15,-70.9167,286.21,71,0,6.69,CL,1675832513
50,naryan-mar,67.6713,53.087,273.81,80,85,10.16,RU,1675832514
51,college,64.8569,-147.8028,252.85,100,77,0.61,US,1675832514
52,hithadhoo,-0.6,73.0833,300.55,73,12,3.52,MV,1675832515
53,tura,25.5198,90.2201,297.7,30,82,1.46,IN,1675832515
54,loon,9.7998,123.7929,300.05,76,100,6.65,PH,1675832515
55,flin flon,54.7682,-101.865,265.78,92,27,3.28,CA,1675832516
56,madaoua,14.073,5.96,291.48,16,78,4.44,NE,1675831967
57,chuy,-33.6971,-53.4616,293.24,86,12,2.73,UY,1675832225
58,pisco,-13.7,-76.2167,296.18,83,0,4.12,PE,1675832298
59,kruisfontein,-34.0033,24.7314,291.42,74,99,1.4,ZA,1675832517
60,tasiilaq,65.6145,-37.6368,256.24,46,0,8.49,GL,1675832517
61,qaanaaq,77.484,-69.3632,241.05,67,8,2.71,GL,1675832518
62,lamar,33.6668,-95.5836,285.1,97,100,4.12,US,1675832257
63,avarua,-21.2078,-159.775,301.18,78,20,3.6,CK,1675832518
64,yellowknife,62.456,-114.3525,253.46,84,100,3.09,CA,1675832519
65,cape town,-33.9258,18.4232,294.21,75,20,6.71,ZA,1675832343
66,saint-philippe,-21.3585,55.7679,301.92,81,87,5.91,RE,1675832267
67,kodinsk,58.6881,99.1844,263.3,91,100,1.62,RU,1675832519
68,nishihara,26.1842,127.7558,294.96,73,40,7.72,JP,1675832519
69,vila franca do campo,37.7167,-25.4333,285.38,75,86,5.06,PT,1675832280
70,saskylakh,71.9167,114.0833,239.73,99,100,0.82,RU,1675832520
71,vitry-le-francois,48.7333,4.5833,271.38,57,26,3.04,FR,1675832520
72,atuona,-9.8,-139.0333,299.27,76,21,7.61,PF,1675832521
73,new norfolk,-42.7826,147.0587,291.43,45,7,0.89,AU,1675832521
74,rio brilhante,-21.8019,-54.5464,294.61,95,31,1.99,BR,1675832522
75,liverpool,53.4106,-2.9779,277.75,91,20,2.24,GB,1675832392
76,vostok,46.4856,135.8833,257.27,82,62,5.71,RU,1675832524
77,cherskiy,68.75,161.3,240.46,97,100,2.53,RU,1675832525
78,provideniya,64.3833,-173.3,253.21,71,100,3.0,RU,1675832525
79,bilma,18.6853,12.9164,290.95,24,100,3.59,NE,1675832526
80,upernavik,72.7868,-56.1549,242.42,95,47,1.89,GL,1675832337
81,riyadh,24.6877,46.7219,285.23,38,16,2.59,SA,1675832406
82,puerto suarez,-18.95,-57.8,295.81,98,100,1.2,BO,1675832527
83,puerto ayora,-0.7393,-90.3518,299.01,92,36,1.34,EC,1675832366
84,saint george,37.1041,-113.5841,279.79,54,0,3.09,US,1675832434
85,gat,31.61,34.7642,283.75,100,47,6.14,IL,1675832528
86,karratha,-20.7377,116.8463,308.47,39,42,7.33,AU,1675832529
87,east london,-33.0153,27.9116,293.67,94,100,5.66,ZA,1675832531
88,jamestown,42.097,-79.2353,275.94,95,100,4.12,US,1675832454
89,albox,37.3886,-2.1495,282.22,79,100,1.54,ES,1675832532
90,agboville,5.928,-4.2132,297.36,94,95,1.34,CI,1675832533
91,castro,-24.7911,-50.0119,289.0,96,43,2.16,BR,1675832534
92,bethel,41.3712,-73.414,276.75,84,100,0.45,US,1675832535
93,albany,42.6001,-73.9662,276.42,78,84,1.67,US,1675832421
94,barrow,71.2906,-156.7887,253.16,77,100,3.09,US,1675832535
95,staryy nadym,65.6118,72.6842,256.64,87,100,8.15,RU,1675832536
96,thunder bay,48.4001,-89.3168,261.1,79,20,1.54,CA,1675832537
97,torbay,47.6666,-52.7314,271.25,85,75,11.32,CA,1675832537
98,aklera,24.4167,76.5667,295.24,27,0,1.56,IN,1675832538
99,porbandar,21.6422,69.6093,298.23,44,20,3.43,IN,1675832539
100,sao joao da barra,-21.6403,-41.0511,296.41,94,100,1.65,BR,1675832539
101,olafsvik,64.8945,-23.7142,270.85,52,100,12.68,IS,1675832540
102,guozhen,34.3659,107.359,280.43,72,100,2.38,CN,1675832498
103,linjiang,41.8069,126.9078,270.21,56,18,2.93,CN,1675831971
104,severo-kurilsk,50.6789,156.125,268.53,75,25,4.76,RU,1675832452
105,mataura,-46.1927,168.8643,282.86,62,56,5.29,NZ,1675832542
106,hilo,19.7297,-155.09,296.64,98,57,0.89,US,1675832458
107,rawson,-43.3002,-65.1023,291.25,58,1,2.13,AR,1675832543
108,sibiti,-3.6819,13.3499,293.62,97,100,1.03,CG,1675832543
109,xapuri,-10.6517,-68.5044,294.96,99,69,0.98,BR,1675832544
110,luderitz,-26.6481,15.1594,291.38,82,22,6.98,NA,1675832544
111,georgetown,5.4112,100.3354,305.11,66,20,3.09,MY,1675832328
112,aripuana,-9.1667,-60.6333,294.45,99,38,0.67,BR,1675832545
113,arraial do cabo,-22.9661,-42.0278,296.74,92,100,1.8,BR,1675832546
114,la rioja,42.25,-2.5,272.03,97,100,2.79,ES,1675832547
115,denpasar,-8.65,115.2167,303.96,70,20,5.14,ID,1675832494
116,harnosand,62.6323,17.9379,265.15,91,38,2.74,SE,1675832547
117,salalah,17.0151,54.0924,295.92,55,69,0.99,OM,1675832548
118,atasu,48.6814,71.6433,260.46,91,100,2.81,KZ,1675832548
119,buraydah,26.326,43.975,281.4,46,100,3.72,SA,1675832339
120,dingle,10.9995,122.6711,301.35,67,100,7.44,PH,1675832549
121,ostersund,63.1792,14.6357,273.4,86,65,4.63,SE,1675832549
122,kalmunai,7.4167,81.8167,300.7,74,85,4.74,LK,1675832550
123,itaueira,-7.6033,-43.0256,295.15,82,73,0.59,BR,1675832551
124,lishu,43.3047,124.3278,270.37,36,0,4.76,CN,1675832552
125,brae,60.3964,-1.353,280.0,74,100,14.03,GB,1675832552
126,kodiak,57.79,-152.4072,269.5,72,38,3.16,US,1675832553
127,wiang sa,8.6359,99.3666,306.64,55,33,0.5,TH,1675832555
128,paamiut,61.994,-49.6678,257.74,77,90,5.59,GL,1675832557
129,saint-augustin,51.226,-58.6502,254.43,91,39,2.63,CA,1675832558
130,ponta delgada,37.7333,-25.6667,285.55,87,40,4.12,PT,1675832559
131,nyurba,63.2842,118.3319,241.37,93,100,0.32,RU,1675832559
132,port blair,11.6667,92.75,303.17,58,40,3.6,IN,1675832560
133,ostrovnoy,68.0531,39.5131,270.94,82,11,9.07,RU,1675832286
134,bathsheba,13.2167,-59.5167,298.49,83,40,5.66,BB,1675832560
135,tuatapere,-46.1333,167.6833,284.32,77,65,6.79,NZ,1675832266
136,tiksi,71.6872,128.8694,235.34,99,93,2.79,RU,1675832561
137,beringovskiy,63.05,179.3167,243.21,96,68,3.32,RU,1675832561
138,seoul,37.5683,126.9778,281.81,30,0,3.6,KR,1675831841
139,komsomolskiy,40.4272,71.7189,278.55,60,92,2.06,UZ,1675832562
140,cururupu,-1.8283,-44.8683,296.32,96,100,1.06,BR,1675832562
141,sorland,67.667,12.6934,280.07,89,100,22.67,NO,1675832285
142,nola,40.922,14.5329,277.26,68,13,2.34,IT,1675832563
143,carnarvon,-24.8667,113.6333,303.39,53,4,7.04,AU,1675832563
144,bandarbeyla,9.4942,50.8122,298.62,69,99,5.47,SO,1675832564
145,yulara,-25.2406,130.9889,311.86,14,0,5.52,AU,1675832564
146,avera,33.194,-82.5271,283.88,67,57,2.55,US,1675832565
147,taoudenni,22.6783,-3.9836,289.37,22,84,5.19,ML,1675832565
148,anchorage,61.2181,-149.9003,271.86,93,100,5.66,US,1675832504
149,broome,42.2506,-75.833,276.96,79,100,4.12,US,1675832566
150,longyearbyen,78.2186,15.6401,268.06,74,40,4.12,SJ,1675832284
151,benin,9.5,2.25,296.78,22,70,1.51,BJ,1675832566
152,makakilo city,21.3469,-158.0858,296.31,75,75,3.09,US,1675832567
153,nanakuli,21.3906,-158.1547,297.1,60,75,3.09,US,1675832567
154,cabo san lucas,22.8909,-109.9124,293.43,38,87,2.38,MX,1675832267
155,waipawa,-41.4122,175.5153,291.85,64,17,1.44,NZ,1675832568
156,phuket,8.0,98.25,303.27,62,20,5.66,TH,1675832279
157,tuktoyaktuk,69.4541,-133.0374,243.15,69,100,1.54,CA,1675832568
158,clyde river,70.4692,-68.5914,237.28,68,0,2.06,CA,1675832569
159,molochnoye,59.2917,39.6787,265.93,92,97,5.06,RU,1675832569
160,saint-pierre,-21.3393,55.4781,301.97,65,0,10.8,RE,1675832570
161,nueve de julio,-35.4444,-60.8831,296.1,37,47,2.42,AR,1675832292
162,emba,48.8264,58.1442,258.63,90,40,6.5,KZ,1675832570
163,breves,-1.6822,-50.4803,295.72,98,100,1.24,BR,1675832570
164,naron,43.5167,-8.1528,279.77,75,13,2.51,ES,1675832391
165,cidreira,-30.1811,-50.2056,296.97,82,6,6.17,BR,1675832571
166,luganville,-15.5333,167.1667,301.34,77,100,2.94,VU,1675832571
167,tyret pervaya,53.6703,102.3106,260.89,89,100,1.72,RU,1675832572
168,varkkallai,8.7341,76.7067,303.03,54,29,0.34,IN,1675832572
169,wajid,3.8093,43.2471,297.92,56,0,9.74,SO,1675832572
170,berlevag,70.8578,29.0864,273.15,64,75,13.38,NO,1675832573
171,mar del plata,-38.0023,-57.5575,295.98,97,100,7.6,AR,1675832573
172,hofn,64.2539,-15.2082,272.38,65,100,7.33,IS,1675832574
173,porto belo,-27.1578,-48.5531,296.57,82,22,0.69,BR,1675832574
174,mount pleasant,32.7941,-79.8626,286.23,90,75,0.0,US,1675832396
175,kijang,35.2442,129.2139,286.0,25,15,4.52,KR,1675832574
176,coahuayana,18.7333,-103.6833,294.09,94,16,1.53,MX,1675832575
177,alofi,-19.0595,-169.9187,301.09,78,100,5.14,NU,1675832575
178,guerrero negro,27.9769,-114.0611,288.75,33,0,1.09,MX,1675832576
179,praya,14.9215,-23.5087,292.45,63,75,10.29,CV,1675832563
180,svetlyy,54.675,20.1347,274.18,81,92,5.56,RU,1675832576
181,manor,19.75,72.9167,302.08,25,2,1.07,IN,1675832576
182,gilbues,-9.8317,-45.3439,295.28,76,59,0.92,BR,1675832577
183,acapulco,16.8634,-99.8901,297.13,75,1,1.98,MX,1675832357
184,paraiso,9.8383,-83.8656,292.63,99,98,2.23,CR,1675832005
185,nexo,55.0607,15.1306,275.2,68,98,6.15,DK,1675832577
186,taltal,-25.4,-70.4833,293.74,84,21,0.83,CL,1675832578
187,north myrtle beach,33.816,-78.68,285.94,89,63,2.77,US,1675832414
188,ribeira grande,38.5167,-28.7,286.36,65,55,3.13,PT,1675832578
189,galle,6.0367,80.217,300.57,76,95,0.29,LK,1675832579
190,sur,22.5667,59.5289,299.34,43,65,1.84,OM,1675832579
191,mahebourg,-20.4081,57.7,301.31,74,75,6.69,MU,1675832579
192,half moon bay,37.4636,-122.4286,285.55,76,20,3.09,US,1675832336
193,arshan,46.2732,44.22,264.36,92,100,10.0,RU,1675832580
194,hailey,43.5196,-114.3153,270.07,79,100,2.57,US,1675832580
195,ahipara,-35.1667,173.1667,294.61,63,23,3.63,NZ,1675832581
196,sarai,53.7458,41.0213,258.65,99,77,1.42,RU,1675832581
197,kelvington,52.1667,-103.5343,261.81,100,57,0.83,CA,1675832582
198,vila velha,-20.3297,-40.2925,298.68,91,40,0.0,BR,1675832583
199,hasaki,35.7333,140.8333,285.49,67,100,8.39,JP,1675832584
200,codrington,-38.2667,141.9667,291.91,62,51,6.24,AU,1675832584
201,sibu,2.3,111.8167,303.32,74,40,1.03,MY,1675832585
202,pangody,65.85,74.4859,254.8,91,89,6.69,RU,1675832586
203,clonakilty,51.6231,-8.8706,277.71,86,83,5.16,IE,1675832587
204,aitape,-3.1374,142.3475,298.42,94,100,5.04,PG,1675832591
205,aykhal,66.0,111.5,239.1,99,49,0.77,RU,1675832592
206,camana,-16.6228,-72.7111,296.99,85,75,3.38,PE,1675832593
207,male,4.1748,73.5089,303.12,70,75,3.6,MV,1675832593
208,calamar,10.2511,-74.9146,297.87,79,7,2.08,CO,1675832594
209,sembakung,3.8167,117.25,295.72,98,100,0.48,ID,1675832594
210,bredasdorp,-34.5322,20.0403,292.28,78,5,3.57,ZA,1675832594
211,viedma,-40.8135,-62.9967,292.28,62,34,4.44,AR,1675832596
212,praia,14.9215,-23.5087,292.45,63,75,10.29,CV,1675832597
213,nikolskoye,59.7035,30.7861,272.09,87,100,4.1,RU,1675832598
214,tokonou,9.65,-9.7833,296.91,59,59,2.45,GN,1675832599
215,airai,-8.9266,125.4092,294.03,81,82,1.76,TL,1675832600
216,manokwari,-0.8667,134.0833,299.93,81,100,2.29,ID,1675832601
217,saquena,-4.6667,-73.5167,294.76,98,36,0.61,PE,1675832602
218,port macquarie,-31.4333,152.9167,298.65,60,63,4.48,AU,1675832602
219,biskamzha,53.4497,89.5272,266.98,90,99,1.69,RU,1675832603
220,broken hill,-31.95,141.4333,305.11,13,0,5.46,AU,1675832305
221,alexandria,31.2156,29.9553,281.45,63,100,6.83,EG,1675832604
222,san jose,37.3394,-121.895,284.82,74,0,2.06,US,1675832391
223,hualmay,-11.0964,-77.6139,295.42,87,26,2.81,PE,1675832605
224,weinan,34.5036,109.5089,283.18,53,100,2.64,CN,1675832606
225,mantua,45.1667,10.7833,272.58,71,0,1.34,IT,1675832606
226,larsnes,62.2028,5.5773,281.48,75,98,8.34,NO,1675832607
227,beian,63.6559,9.5683,276.2,81,0,8.23,NO,1675832607
228,wahpeton,46.2652,-96.6059,269.23,93,0,3.09,US,1675832608
229,bonavista,48.6499,-53.1147,270.3,71,95,10.09,CA,1675832608
230,harper,4.375,-7.7169,298.99,84,93,3.05,LR,1675832609
231,ullapool,57.8987,-5.1604,280.01,77,100,6.31,GB,1675832609
232,portland,45.5234,-122.6762,280.26,90,13,2.68,US,1675832397
233,veraval,20.9,70.3667,299.34,43,6,3.6,IN,1675832610
234,waycross,31.2136,-82.354,286.29,99,0,0.0,US,1675832610
235,isangel,-19.55,169.2667,300.33,78,96,1.87,VU,1675832611
236,sakakah,29.9697,40.2064,280.91,52,37,7.33,SA,1675832612
237,estevan,49.1334,-102.9842,274.34,86,75,5.14,CA,1675832512
238,rocha,-34.4833,-54.3333,294.14,76,50,3.32,UY,1675832613
239,asau,46.4333,26.4,266.66,96,99,2.29,RO,1675832613
240,hambantota,6.1241,81.1185,302.34,79,20,5.66,LK,1675832614
241,constitucion,-35.3333,-72.4167,289.13,63,0,3.68,CL,1675832614
242,pangkalanbuun,-2.6833,111.6167,306.13,48,93,1.92,ID,1675832614
243,dali,25.7,100.1833,287.7,28,0,3.59,CN,1675832615
244,souillac,-20.5167,57.5167,301.36,74,75,6.69,MU,1675832616
245,cayenne,4.9333,-52.3333,297.17,100,75,0.0,GF,1675832617
246,ikongo,-21.8833,47.4333,296.33,82,94,0.42,MG,1675832618
247,dongsheng,39.8161,109.9776,271.7,38,100,4.39,CN,1675832618
248,annapolis,38.9785,-76.4922,282.82,85,0,2.57,US,1675832335
249,gurlan,41.8447,60.3919,275.19,57,100,6.68,UZ,1675832619
250,yuxia,34.0615,108.6291,279.49,69,100,1.56,CN,1675832619
251,oktyabrskoye,43.0645,44.7417,265.77,91,100,1.96,RU,1675832619
252,bukama,-9.2,25.85,292.86,98,100,0.69,CD,1675832620
253,verkhnetulomskiy,68.6073,31.7962,273.22,93,15,2.51,RU,1675832621
254,sibolga,1.7427,98.7792,302.48,55,100,1.34,ID,1675832621
255,kalemie,-5.9475,29.1947,293.7,81,100,2.38,CD,1675832621
256,bambous virieux,-20.3428,57.7575,301.29,74,75,6.69,MU,1675832622
257,ios,36.7333,25.2833,279.1,55,95,6.26,GR,1675832622
258,sala consilina,40.3912,15.5989,269.86,88,42,2.7,IT,1675832623
259,mier,26.4333,-99.15,295.47,81,83,6.38,MX,1675832623
260,comodoro rivadavia,-45.8667,-67.5,289.07,44,0,2.06,AR,1675832477
261,marrakesh,31.6315,-8.0083,282.19,76,40,2.57,MA,1675832375
262,trairi,-3.2778,-39.2689,298.15,81,100,3.39,BR,1675832417
263,sitka,57.0531,-135.33,275.09,80,100,1.54,US,1675832624
264,kalmar,56.6616,16.3616,275.45,97,100,3.09,SE,1675832624
265,urumqi,43.801,87.6005,264.68,93,75,2.0,CN,1675831801
266,morehead,37.2711,-87.1764,284.26,87,100,1.54,US,1675832625
267,mareeba,-17.0,145.4333,304.51,72,93,2.45,AU,1675832625
268,emirdag,39.0197,31.15,266.01,94,89,3.61,TR,1675832626
269,khatanga,71.9667,102.5,229.89,100,62,1.44,RU,1675832626
270,eyl,7.9803,49.8164,298.74,67,100,6.45,SO,1675832626
271,mananara,-16.1667,49.7667,298.39,90,87,1.85,MG,1675832626
272,lompoc,34.6391,-120.4579,284.0,95,0,2.06,US,1675832593
273,mogzon,51.7435,111.9606,262.11,79,91,1.47,RU,1675832627
274,kaspiyskiy,45.3929,47.3707,269.63,96,100,6.91,RU,1675832627
275,saldanha,-33.0117,17.9442,290.18,86,0,3.94,ZA,1675832627
276,san quintin,30.4833,-115.95,287.38,50,0,0.88,MX,1675832628
277,japura,-0.3167,102.35,305.8,51,85,1.88,ID,1675832628
278,port hedland,-20.3167,118.5667,308.18,46,45,5.66,AU,1675832565
279,celestun,20.8667,-90.4,297.76,74,13,7.16,MX,1675832629
280,varazdin,46.3044,16.3378,268.09,70,3,1.51,HR,1675832629
281,ixtapa,20.7,-105.2,291.07,73,1,1.22,MX,1675831878
282,kahului,20.8947,-156.47,296.95,79,40,8.75,US,1675832630
283,faanui,-16.4833,-151.75,300.31,72,24,5.19,PF,1675832630
284,san cristobal,7.7669,-72.225,293.25,79,14,0.68,VE,1675832630
285,charters towers,-20.1,146.2667,306.48,38,98,5.02,AU,1675832398
286,dicabisagan,17.0818,122.4157,297.83,84,96,3.87,PH,1675832631
287,shache,38.4167,77.2406,274.34,48,0,0.92,CN,1675832631
288,garoua,9.3,13.4,294.16,22,54,1.12,CM,1675832631
289,boca do acre,-8.7522,-67.3978,295.77,99,100,0.18,BR,1675832632
290,toamasina,-18.1667,49.3833,298.15,94,75,1.54,MG,1675832632
291,atambua,-9.1061,124.8925,300.71,73,60,2.53,ID,1675832633
292,nedjo,9.5046,35.5019,289.69,40,6,1.14,ET,1675832633
293,coquimbo,-29.9533,-71.3436,291.0,88,100,2.57,CL,1675832428
294,ayan,56.45,138.1667,247.52,62,33,2.58,RU,1675832633
295,namangan,40.9983,71.6726,280.4,39,96,1.03,UZ,1675832634
296,dalarik,40.2266,43.8754,272.73,68,99,4.01,AM,1675832634
297,pangoa,-12.1167,-73.0,292.92,99,73,0.81,PE,1675832635
298,santiago del estero,-27.7951,-64.2615,303.67,37,88,3.47,AR,1675832567
299,ola,59.5833,151.2833,251.56,84,33,3.2,RU,1675832635
300,puerto el triunfo,13.2833,-88.55,297.72,66,3,1.6,SV,1675832636
301,mopti,14.6667,-4.0,297.25,16,42,4.29,ML,1675832552
302,pangai,-19.8,-174.35,302.21,70,75,4.12,TO,1675832636
303,ocos,14.5094,-92.1933,295.25,72,9,1.1,GT,1675832637
304,victoria,22.2855,114.1577,293.36,81,96,4.47,HK,1675832406
305,prince rupert,54.3161,-130.3201,277.98,93,100,8.75,CA,1675832537
306,zhuanghe,39.7008,122.9911,276.28,26,0,1.9,CN,1675832637
307,labuhan,-6.8844,112.2051,299.17,84,100,2.85,ID,1675832638
308,vardo,70.3705,31.1107,271.14,80,35,11.32,NO,1675832638
309,xinyang,32.1228,114.0656,282.54,74,100,5.58,CN,1675832638
310,napier,-39.4833,176.9167,296.08,72,24,3.58,NZ,1675832638
311,haileybury,47.449,-79.6373,270.47,95,100,4.3,CA,1675832639
312,russell,32.3502,-85.1999,288.15,93,0,0.0,US,1675832438
313,kimamba,-6.7833,37.1333,295.35,94,100,0.27,TZ,1675832639
314,hirara,24.8,125.2833,295.3,78,75,5.66,JP,1675832484
315,kenai,60.5544,-151.2583,269.34,80,100,6.69,US,1675832640
316,esperance,-33.8667,121.9,295.45,64,63,6.09,AU,1675832640
317,port moresby,-9.4431,147.1797,298.83,94,100,4.12,PG,1675832374
318,morgan city,29.6994,-91.2068,292.59,94,20,3.09,US,1675832640
319,kloulklubed,7.0419,134.2556,302.43,76,100,8.26,PW,1675832641
320,palamuse,58.6843,26.584,272.01,91,100,4.56,EE,1675832641
321,sao felix do xingu,-6.6447,-51.995,294.56,99,88,0.27,BR,1675832642
322,los llanos de aridane,28.6585,-17.9182,285.01,76,20,4.02,ES,1675832642
323,upata,8.0086,-62.3989,294.92,96,1,1.85,VE,1675832643
324,petropavlovsk-kamchatskiy,53.0452,158.6483,265.48,42,40,3.0,RU,1675832644
325,iqaluit,63.7506,-68.5145,240.0,75,75,1.03,CA,1675832645
326,wad madani,14.4012,33.5199,291.06,17,14,6.77,SD,1675832645
327,sindi,20.8,78.8667,299.64,19,2,3.63,IN,1675832646
328,meulaboh,4.1363,96.1285,302.42,64,70,1.56,ID,1675832646
329,pampa,35.5362,-100.9599,277.68,52,97,3.6,US,1675832647
330,copiapo,-27.3667,-70.3333,289.98,63,47,0.62,CL,1675832451
331,arman,59.7,150.1667,251.49,82,30,2.92,RU,1675832573
332,boa vista,2.8197,-60.6733,299.14,73,75,6.17,BR,1675832649
333,matara,5.9485,80.5353,302.32,65,85,3.32,LK,1675832649
334,gao,16.6362,1.637,295.46,15,76,5.43,ML,1675832493
335,norsup,-16.0667,167.3833,300.85,74,100,1.91,VU,1675832650
336,shieli,44.1667,66.75,275.44,71,100,2.52,KZ,1675832650
337,ritchie,-29.038,24.6028,290.71,79,100,4.62,ZA,1675832652
338,namibe,-15.1961,12.1522,293.71,78,96,2.6,AO,1675832652
339,linkou,45.3,130.2833,266.05,66,47,3.0,CN,1675832652
340,arica,-18.475,-70.3042,295.28,78,0,1.54,CL,1675832653
341,grafton,42.207,-71.6856,274.31,87,100,1.79,US,1675832653
342,klaksvik,62.2266,-6.589,280.65,85,100,25.6,FO,1675832654
343,peris,44.6847,26.0139,270.22,74,75,6.17,RO,1675832655
344,geraldton,-28.7667,114.6,305.38,37,0,7.72,AU,1675832569
345,poso,-1.3959,120.7524,301.95,68,99,2.49,ID,1675832656
346,matagami,49.7502,-77.6328,261.21,79,100,5.66,CA,1675832609
347,ranong,9.9658,98.6348,306.11,51,10,1.12,TH,1675832657
348,saint-francois,46.4154,3.9054,266.84,93,2,0.0,FR,1675832657
349,barra patuca,15.8,-84.2833,296.95,86,13,4.29,HN,1675832658
350,wanaka,-44.7,169.15,292.65,28,80,3.13,NZ,1675832554
351,okha,53.5739,142.9478,249.69,81,100,5.19,RU,1675832659
352,nemuro,43.3236,145.575,269.95,58,23,1.32,JP,1675832660
353,ihosy,-22.4,46.1167,293.2,88,100,2.84,MG,1675832661
354,jumla,29.2747,82.1838,284.18,16,0,2.18,NP,1675832661
355,yerbogachen,61.2767,108.0108,250.52,96,100,0.97,RU,1675832662
356,pangnirtung,66.1451,-65.7125,239.47,82,5,2.59,CA,1675832663
357,katobu,-4.9408,122.5276,304.86,53,82,2.73,ID,1675832663
358,xichang,27.8964,102.2634,289.34,37,0,1.8,CN,1675832664
359,yar-sale,66.8333,70.8333,259.73,85,100,10.8,RU,1675832664
360,taywarah,33.35,64.4167,272.19,85,72,1.85,AF,1675832665
361,maarianhamina,60.0973,19.9348,276.07,93,100,3.6,AX,1675832552
362,seabra,-12.4186,-41.7703,289.63,78,4,1.31,BR,1675832666
363,saint-joseph,-21.3667,55.6167,301.36,77,81,5.89,RE,1675832667
364,ta khmau,11.4833,104.95,306.18,49,40,2.06,KH,1675832668
365,gloversville,43.0528,-74.3438,277.34,93,100,0.0,US,1675832669
366,gigmoto,13.7796,124.39,300.48,74,95,6.09,PH,1675832670
367,rumoi,43.9344,141.6428,271.06,59,100,6.84,JP,1675832671
368,mbandaka,0.0487,18.2603,294.58,78,43,0.85,CD,1675832672
369,manama,26.2154,50.5832,293.11,63,98,6.17,BH,1675832618
370,predivinsk,57.0669,93.4378,266.25,90,100,3.6,RU,1675832672
371,mikhaylovka,50.06,43.2379,259.7,92,6,5.37,RU,1675832673
372,oistins,13.0667,-59.5333,297.2,88,75,9.26,BB,1675832673
373,khorixas,-20.3667,14.9667,291.13,51,36,1.26,NA,1675832674
374,san patricio,28.017,-97.5169,295.2,93,94,4.51,US,1675832675
375,pasni,25.2631,63.471,295.28,54,20,2.04,PK,1675832675
376,birin,26.8865,88.0718,288.38,40,6,2.83,NP,1675832676
377,port augusta,-32.5,137.7667,309.24,13,0,5.77,AU,1675832565
378,hlobyne,49.3878,33.2596,264.65,82,6,4.59,UA,1675832676
379,adrar,20.5022,-10.0711,286.61,26,81,5.43,MR,1675832677
380,moroni,-11.7022,43.2551,300.25,78,100,2.08,KM,1675832677
381,pontianak,-0.0333,109.3333,304.14,62,40,1.54,ID,1675832482
382,iquitos,-3.7481,-73.2472,297.17,94,75,1.54,PE,1675832678
383,gizo,-8.103,156.8419,301.93,75,100,6.13,SB,1675832679
384,stanghelle,60.5528,5.7357,279.61,98,97,2.48,NO,1675832679
385,chimore,-16.9833,-65.1333,295.08,99,100,0.61,BO,1675832680
386,qingyuan,23.7,113.0333,295.14,85,100,0.63,CN,1675832507
387,sobolevo,54.4299,31.8996,258.08,99,68,2.06,RU,1675832680
388,visnes,59.3556,5.2242,280.18,87,100,6.17,NO,1675832681
389,awjilah,29.1081,21.2869,281.92,62,80,2.69,LY,1675832681
390,berasia,23.6333,77.4333,295.07,26,0,2.14,IN,1675832682
391,mount gambier,-37.8333,140.7667,295.63,48,11,5.68,AU,1675832682
392,khor,47.8861,134.9464,254.92,76,4,4.45,RU,1675832683
393,zavetnoye,47.1194,43.8903,265.65,75,100,9.86,RU,1675832683
394,kirillov,59.863,38.3813,267.37,93,100,3.77,RU,1675832683
395,mehamn,71.0357,27.8492,273.12,64,0,13.38,NO,1675832684
396,eden,36.4885,-79.7667,284.51,53,0,2.06,US,1675832404
397,mariahu,25.6167,82.6167,294.13,40,0,3.48,IN,1675832684
398,elk plain,47.0532,-122.3976,279.08,91,40,6.69,US,1675832684
399,socorro,31.6546,-106.3033,278.81,54,40,0.0,US,1675832685
400,bechem,7.0903,-2.025,294.4,97,89,0.92,GH,1675832685
401,ambilobe,-13.2,49.05,297.54,90,100,0.76,MG,1675832686
402,mindelo,16.8901,-24.9804,292.9,56,75,9.26,CV,1675832686
403,shabo,46.1326,30.386,270.92,64,100,9.31,UA,1675832686
404,la ronge,55.1001,-105.2842,271.29,46,0,4.12,CA,1675832686
405,hamilton,39.1834,-84.5333,283.5,86,100,1.34,US,1675832448
406,aguimes,27.9054,-15.4461,286.5,63,20,4.12,ES,1675832687
407,abu dhabi,24.4667,54.3667,295.35,80,0,1.03,AE,1675832403
408,chicama,-7.8447,-79.1469,294.45,76,60,1.77,PE,1675832688
409,cabedelo,-6.9811,-34.8339,297.52,77,99,3.96,BR,1675832534
410,suamico,44.6319,-88.0393,273.25,78,0,1.34,US,1675832688
411,shimoda,34.6667,138.95,285.35,74,63,4.15,JP,1675832688
412,margate,51.3813,1.3862,277.19,68,42,1.59,GB,1675832554
413,gazli,40.1333,63.45,282.79,53,100,4.18,UZ,1675832689
414,hailar,49.2,119.7,255.82,91,93,1.49,CN,1675832689
415,grindavik,63.8424,-22.4338,270.12,74,75,12.35,IS,1675832689
416,hobyo,5.3505,48.5268,299.34,64,91,7.15,SO,1675832690
417,olinda,-8.0089,-34.8553,297.0,73,20,0.0,BR,1675832390
418,auki,-8.7676,160.7034,302.97,65,84,2.74,SB,1675832690
419,ulladulla,-35.35,150.4667,293.59,76,100,0.49,AU,1675832691
420,sao filipe,14.8961,-24.4956,293.19,69,30,4.28,CV,1675832691
421,makokou,0.5738,12.8642,293.79,97,89,1.07,GA,1675832691
422,aswan,24.0934,32.907,282.76,49,0,3.09,EG,1675832692
423,guarapari,-20.6667,-40.4975,298.65,94,100,1.03,BR,1675832692
424,hidalgotitlan,17.7833,-94.6333,293.82,94,0,1.85,MX,1675832692
425,walla walla,46.0646,-118.343,280.85,76,100,10.73,US,1675832591
426,severnoye,56.3491,78.3619,255.64,96,92,2.21,RU,1675832693
427,omboue,-1.5746,9.2618,298.14,89,100,2.23,GA,1675832693
428,norman wells,65.282,-126.8329,249.17,77,75,2.06,CA,1675832693
429,balezino,57.9796,53.0106,258.89,95,99,4.54,RU,1675832694
430,kant,27.8,79.8,292.77,36,0,4.52,IN,1675832694
431,jalu,29.0331,21.5482,281.66,62,83,2.46,LY,1675832568
432,kidal,18.4411,1.4078,295.93,15,88,4.32,ML,1675832694
433,gayny,60.3071,54.3241,262.35,94,100,3.78,RU,1675832695
434,lubango,-14.9172,13.4925,287.25,79,96,0.99,AO,1675832695
435,muros,42.7762,-9.0603,277.64,81,24,6.88,ES,1675832695
436,farafangana,-22.8167,47.8333,297.22,88,100,1.69,MG,1675832696
437,rio gallegos,-51.6226,-69.2181,287.18,72,0,8.75,AR,1675832696
438,presidencia roque saenz pena,-26.7852,-60.4388,300.49,38,40,2.76,AR,1675832696
439,ocean city,39.2776,-74.5746,279.32,87,100,1.79,US,1675832443
440,kantunilkin,21.0917,-87.45,294.01,99,8,1.49,MX,1675832697
441,blagoveshchenka,52.8333,79.8667,256.02,96,96,2.24,RU,1675832697
442,malpe,13.35,74.7167,302.76,45,78,0.46,IN,1675832698
443,caravelas,-17.7125,-39.2481,297.39,85,42,2.76,BR,1675832698
444,edson,53.5835,-116.4356,272.23,93,100,2.06,CA,1675832437
445,southbridge,42.0751,-72.0334,274.41,95,100,0.89,US,1675832698
446,aksay,47.26,39.87,268.29,78,55,6.71,RU,1675832699
447,alice springs,-23.7,133.8833,308.9,26,40,5.66,AU,1675832567
448,belmonte,-15.8631,-38.8828,297.86,80,15,3.0,BR,1675832699
449,bansang,13.4333,-14.65,295.03,21,13,1.83,GM,1675832699
450,ilebo,-4.3167,20.5833,294.38,96,100,0.3,CD,1675832700
451,fortuna,40.5982,-124.1573,280.92,92,40,0.0,US,1675832700
452,aksarka,66.5606,67.7975,259.32,94,100,9.35,RU,1675832701
453,santa fe,-31.6333,-60.7,300.94,58,0,0.89,AR,1675832529
454,plettenberg bay,-34.0527,23.3716,292.36,84,99,2.58,ZA,1675832702
455,alta floresta,-9.8756,-56.0861,294.81,97,97,0.7,BR,1675832702
456,kudahuvadhoo,2.6708,72.8944,300.11,71,36,3.23,MV,1675832703
457,altamira,-3.2033,-52.2064,295.37,99,99,1.15,BR,1675832604
458,zambezi,-13.5432,23.1047,290.28,97,100,2.24,ZM,1675832705
459,chulman,56.8479,124.9104,248.61,86,100,3.38,RU,1675832705
460,skovorodino,53.9833,123.9167,256.64,76,57,1.81,RU,1675832706
461,biak,-0.9131,122.8766,299.2,76,100,3.22,ID,1675832707
462,auray,47.6703,-2.9918,277.45,83,94,4.03,FR,1675832707
463,carballo,43.213,-8.691,279.14,68,26,1.86,ES,1675832708
464,nabire,-3.3667,135.4833,300.0,77,100,1.03,ID,1675832710
465,mandalgovi,45.7625,106.2708,265.15,66,97,4.23,MN,1675832711
466,tautira,-17.7333,-149.15,299.94,62,6,2.46,PF,1675832712
467,ucluelet,48.9329,-125.5528,278.58,75,56,5.93,CA,1675832442
468,bulungu,-4.55,18.6,294.29,85,95,1.0,CD,1675832714
469,dzaoudzi,-12.7887,45.2699,301.09,83,20,3.09,YT,1675832715
470,yantal,56.8471,105.2542,264.77,89,100,2.48,RU,1675832715
471,pincher creek,49.4833,-113.952,275.31,74,0,12.86,CA,1675832676
472,voh,-20.9667,164.7,299.54,89,100,1.8,NC,1675832716
473,prado,-17.3411,-39.2208,296.99,87,19,2.95,BR,1675832717
474,padang,-0.9492,100.3543,303.18,59,91,2.2,ID,1675832446
475,pacific grove,36.6177,-121.9166,283.92,92,0,4.12,US,1675832544
476,dunedin,-45.8742,170.5036,289.1,48,53,7.7,NZ,1675832480
477,birao,10.2849,22.7882,293.16,21,10,5.32,CF,1675832719
478,aranos,-24.1333,19.1167,294.02,71,72,2.68,NA,1675832719
479,tilichiki,60.4667,166.1,243.62,90,56,4.38,RU,1675832720
480,sioux lookout,50.1001,-91.917,265.19,73,20,3.6,CA,1675832442
481,saint-leu,-21.15,55.2833,301.63,71,91,2.29,RE,1675832721
482,qaqortoq,60.7167,-46.0333,248.3,67,22,4.11,GL,1675832722
483,the valley,18.217,-63.0578,298.2,76,0,9.03,AI,1675832648
484,kropotkin,45.4375,40.5756,266.75,93,100,6.42,RU,1675832723
485,tigil,57.8,158.6667,252.53,93,100,4.36,RU,1675832723
486,sokolo,14.7328,-6.1219,296.02,15,38,6.63,ML,1675832723
487,bubaque,11.2833,-15.8333,297.23,59,5,4.86,GW,1675832724
488,kieta,-6.2167,155.6333,302.67,67,38,3.1,PG,1675832725
489,conceicao do mato dentro,-19.0372,-43.425,292.11,97,100,0.5,BR,1675832725
490,tomatlan,19.9333,-105.25,290.89,89,0,1.35,MX,1675832727
491,darasun,51.6667,114.0,261.57,72,73,0.73,RU,1675832727
492,lorengau,-2.0226,147.2712,299.19,90,100,8.07,PG,1675832727
493,purranque,-40.9167,-73.1667,286.78,99,9,1.19,CL,1675832728
494,flinders,-34.5833,150.8552,295.47,89,100,1.79,AU,1675832729
495,gimli,50.6336,-96.9907,265.16,93,46,1.54,CA,1675832729
496,teya,60.3778,92.6267,263.08,89,100,2.74,RU,1675832730
497,manaure,11.7751,-72.4445,297.78,77,0,6.79,CO,1675832731
498,kunming,25.0389,102.7183,289.11,31,0,11.0,CN,1675832731
499,necochea,-38.5473,-58.7368,295.24,75,11,5.92,AR,1675832732
500,sidney,-33.8679,151.2073,300.16,70,47,3.13,AU,1675832537
501,gebze,40.8028,29.4307,275.96,86,75,3.09,TR,1675832733
502,shurugwi,-19.6702,30.0059,291.3,71,1,1.68,ZW,1675832733
503,urrao,6.3152,-76.1342,286.91,95,77,0.15,CO,1675832734
504,nome,64.5011,-165.4064,249.19,84,0,1.54,US,1675832735
505,progreso,21.2833,-89.6667,297.1,77,3,5.72,MX,1675832735
506,shizunai,42.3339,142.3669,271.57,56,93,4.48,JP,1675832735
507,el alto,-4.2714,-81.2147,296.69,77,72,4.78,PE,1675832736
508,felanitx,39.4696,3.1483,283.29,75,97,9.06,ES,1675832736
509,anajatuba,-3.2644,-44.6197,295.71,98,100,1.06,BR,1675832737
510,young,-32.6833,-57.6333,296.72,40,0,3.63,UY,1675832737
511,zyryanka,65.75,150.85,241.14,91,100,1.86,RU,1675832738
512,puri,19.8,85.85,300.44,63,28,4.98,IN,1675832739
513,vangaindrano,-23.35,47.6,297.68,85,99,1.24,MG,1675832739
514,lianran,24.9227,102.485,289.45,19,0,6.11,CN,1675832739
515,puerto del rosario,28.5004,-13.8627,286.01,71,0,2.57,ES,1675832734
516,santa cruz de tenerife,28.4682,-16.2546,289.1,91,100,2.57,ES,1675832452
517,jind,29.3167,76.3167,292.37,30,5,2.9,IN,1675832741
518,bari,41.1177,16.8512,279.75,53,0,7.2,IT,1675832741
519,encruzilhada,-15.5314,-40.9094,290.62,98,11,1.12,BR,1675832742
520,moundou,8.5667,16.0833,294.68,21,10,1.41,TD,1675832742
521,hokitika,-42.7167,170.9667,290.28,55,29,7.64,NZ,1675832667
522,antalaha,-14.9003,50.2788,299.34,78,77,1.94,MG,1675832743
523,valparaiso,-33.0393,-71.6273,289.95,88,100,4.12,CL,1675832628
524,rudnichnyy,59.617,52.4703,262.46,94,100,4.28,RU,1675832743
525,dalbandin,28.8947,64.4101,292.52,25,80,2.28,PK,1675832744
526,chumikan,54.7183,135.315,248.99,75,59,5.89,RU,1675832744
527,beyneu,45.3167,55.2,269.98,60,100,10.19,KZ,1675832744
528,nikki,9.9401,3.2108,295.38,19,85,1.94,BJ,1675832745
529,nouadhibou,20.931,-17.0347,288.14,67,0,8.75,MR,1675832745
530,midyat,37.4247,41.3393,272.75,89,94,3.32,TR,1675832746
531,mount isa,-20.7333,139.5,308.02,43,75,3.09,AU,1675832746
532,marawi,7.9986,124.2928,298.96,61,78,3.65,PH,1675832746
533,port lincoln,-34.7333,135.8667,297.92,51,46,4.78,AU,1675832747
534,kepala batas,5.5171,100.4265,305.12,66,20,3.13,MY,1675832747
535,solnechnyy,50.7214,136.6319,253.7,76,91,2.83,RU,1675832747
536,jaisalmer,26.9147,70.9181,297.31,14,2,5.33,IN,1675832748
537,el jicaro,14.9167,-89.9,293.77,95,16,1.1,GT,1675832748
538,iracoubo,5.4802,-53.2011,297.13,91,74,4.46,GF,1675832748
539,barre,44.197,-72.5021,276.75,68,99,3.16,US,1675832500
540,emerald,-23.5333,148.1667,306.16,29,19,5.37,AU,1675832594
541,sibut,5.718,19.0739,294.39,20,9,1.36,CF,1675832749
542,zuwarah,32.9312,12.082,285.61,66,100,8.19,LY,1675832749
543,muncar,-8.4333,114.3333,302.16,67,99,1.0,ID,1675832750
544,nalut,30.3333,10.85,286.43,40,97,4.51,LY,1675832750
545,fujin,47.26,132.0322,258.85,81,13,2.66,CN,1675832751
546,bereda,43.2686,-7.5406,275.05,99,24,1.02,ES,1675832751
547,petatlan,17.5167,-101.2667,294.91,78,0,1.47,MX,1675832751
548,novomikhaylovskiy,44.2581,38.8578,270.77,78,100,10.25,RU,1675832752
549,beloha,-25.1667,45.05,297.93,67,100,3.3,MG,1675832752
550,lata,40.1629,-8.3327,281.99,83,42,3.91,PT,1675832752
551,aklavik,68.2191,-135.0107,244.36,96,100,3.32,CA,1675832753
552,topolobampo,25.6,-109.05,289.37,63,72,8.87,MX,1675832753
553,satis,54.9229,43.2298,254.32,100,100,1.79,RU,1675832753
554,dingalan,15.3897,121.3929,300.24,75,97,4.73,PH,1675832754
555,puerto colombia,10.9878,-74.9547,299.2,79,1,13.73,CO,1675832754
556,kavaratti,10.5669,72.642,299.94,71,95,5.77,IN,1675832755
557,yarada,17.65,83.2667,301.33,69,20,1.54,IN,1675832755
558,xam nua,20.4197,104.0439,301.0,38,18,2.25,LA,1675832755
559,iskateley,67.6803,53.1512,273.77,80,85,10.12,RU,1675832756
560,mbuji-mayi,-6.15,23.6,293.42,93,100,1.12,CD,1675832756
561,mbuji-mayi,-6.15,23.6,293.42,93,100,1.12,CD,1675832756
